{
  "SGSIN": {"name": "Singapore", "lat": 1.26, "lng": 103.82, "capacity_teu": 3800, "baseline_vessels": 12, "radius_km": 30, "country": "SG"},
  "MYKLA": {"name": "Port Klang", "lat": 3.00, "lng": 101.39, "capacity_teu": 1400, "baseline_vessels": 8, "radius_km": 20, "country": "MY"},
  "LKCMB": {"name": "Colombo", "lat": 6.93, "lng": 79.84, "capacity_teu": 700, "baseline_vessels": 6, "radius_km": 20, "country": "LK"},
  "INJNP": {"name": "JNPT Mumbai", "lat": 18.95, "lng": 72.95, "capacity_teu": 550, "baseline_vessels": 7, "radius_km": 20, "country": "IN"},
  "INCHE": {"name": "Chennai", "lat": 13.10, "lng": 80.29, "capacity_teu": 450, "baseline_vessels": 5, "radius_km": 20, "country": "IN"},
  "INMUN": {"name": "Mundra", "lat": 22.74, "lng": 69.72, "capacity_teu": 600, "baseline_vessels": 6, "radius_km": 20, "country": "IN"},
  "INVIZ": {"name": "Vizag", "lat": 17.69, "lng": 83.22, "capacity_teu": 250, "baseline_vessels": 3, "radius_km": 15, "country": "IN"},
  "AEJEA": {"name": "Jebel Ali", "lat": 25.01, "lng": 55.06, "capacity_teu": 1900, "baseline_vessels": 10, "radius_km": 25, "country": "AE"},
  "EGPSD": {"name": "Port Said", "lat": 31.26, "lng": 32.30, "capacity_teu": 800, "baseline_vessels": 9, "radius_km": 20, "country": "EG"},
  "CNSHA": {"name": "Shanghai", "lat": 31.23, "lng": 121.47, "capacity_teu": 4700, "baseline_vessels": 20, "radius_km": 40, "country": "CN"},
  "CNNGB": {"name": "Ningbo", "lat": 29.87, "lng": 121.55, "capacity_teu": 3300, "baseline_vessels": 15, "radius_km": 35, "country": "CN"},
  "HKHKG": {"name": "Hong Kong", "lat": 22.29, "lng": 114.15, "capacity_teu": 2000, "baseline_vessels": 11, "radius_km": 25, "country": "HK"},
  "KRPUS": {"name": "Busan", "lat": 35.10, "lng": 129.04, "capacity_teu": 2200, "baseline_vessels": 12, "radius_km": 25, "country": "KR"},
  "JPYOK": {"name": "Yokohama", "lat": 35.44, "lng": 139.64, "capacity_teu": 800, "baseline_vessels": 7, "radius_km": 20, "country": "JP"},
  "NLRTM": {"name": "Rotterdam", "lat": 51.90, "lng": 4.50, "capacity_teu": 1500, "baseline_vessels": 10, "radius_km": 30, "country": "NL"},
  "DEHAM": {"name": "Hamburg", "lat": 53.55, "lng": 9.97, "capacity_teu": 900, "baseline_vessels": 8, "radius_km": 25, "country": "DE"},
  "USNYC": {"name": "New York/New Jersey", "lat": 40.68, "lng": -74.04, "capacity_teu": 700, "baseline_vessels": 6, "radius_km": 25, "country": "US"},
  "USLAX": {"name": "Los Angeles", "lat": 33.74, "lng": -118.26, "capacity_teu": 1000, "baseline_vessels": 9, "radius_km": 30, "country": "US"},
  "IDJKT": {"name": "Tanjung Priok (Jakarta)", "lat": -6.10, "lng": 106.87, "capacity_teu": 800, "baseline_vessels": 7, "radius_km": 20, "country": "ID"},
  "VNSGN": {"name": "Ho Chi Minh City", "lat": 10.77, "lng": 106.70, "capacity_teu": 750, "baseline_vessels": 6, "radius_km": 20, "country": "VN"},
  "TWKHH": {"name": "Kaohsiung", "lat": 22.61, "lng": 120.28, "capacity_teu": 1000, "baseline_vessels": 8, "radius_km": 20, "country": "TW"},
  "MYTPP": {"name": "Tanjung Pelepas", "lat": 1.36, "lng": 103.55, "capacity_teu": 1100, "baseline_vessels": 7, "radius_km": 20, "country": "MY"},
  "LKHAM": {"name": "Hambantota", "lat": 6.12, "lng": 81.10, "capacity_teu": 200, "baseline_vessels": 2, "radius_km": 15, "country": "LK"},
  "AEAUH": {"name": "Khalifa Port (Abu Dhabi)", "lat": 24.83, "lng": 54.65, "capacity_teu": 500, "baseline_vessels": 4, "radius_km": 20, "country": "AE"},
  "GBFXT": {"name": "Felixstowe", "lat": 51.96, "lng": 1.33, "capacity_teu": 400, "baseline_vessels": 5, "radius_km": 20, "country": "GB"}
}
